[
  {
    "id": "loc_001",
    "name": "Downtown Garage",
    "company_id": "comp_001",
    "address": "123 Main Street, San Francisco, CA 94107",
    "total_spots": 120,
    "available_spots": 45,
    "status": "active",
    "image_url": "/placeholder.svg?height=200&width=300",
    "created_at": "2024-11-01T10:00:00Z",
    "coordinates": {
      "latitude": 37.7749,
      "longitude": -122.4194
    }
  },
  {
    "id": "loc_002",
    "name": "Central Plaza Parking",
    "company_id": "comp_001",
    "address": "456 Market Street, San Francisco, CA 94105",
    "total_spots": 85,
    "available_spots": 12,
    "status": "active",
    "image_url": "/placeholder.svg?height=200&width=300",
    "created_at": "2024-11-15T14:30:00Z",
    "coordinates": {
      "latitude": 37.7897,
      "longitude": -122.4
    }
  },
  {
    "id": "loc_003",
    "name": "Riverside Parking",
    "company_id": "comp_002",
    "address": "789 River Road, Chicago, IL 60607",
    "total_spots": 150,
    "available_spots": 73,
    "status": "active",
    "image_url": "/placeholder.svg?height=200&width=300",
    "created_at": "2024-12-01T09:45:00Z",
    "coordinates": {
      "latitude": 41.8781,
      "longitude": -87.6298
    }
  },
  {
    "id": "loc_004",
    "name": "Harbor View Garage",
    "company_id": "comp_002",
    "address": "321 Harbor Drive, Chicago, IL 60601",
    "total_spots": 200,
    "available_spots": 0,
    "status": "full",
    "image_url": "/placeholder.svg?height=200&width=300",
    "created_at": "2024-12-10T11:20:00Z",
    "coordinates": {
      "latitude": 41.8902,
      "longitude": -87.6227
    }
  },
  {
    "id": "loc_005",
    "name": "Midtown Parking Complex",
    "company_id": "comp_003",
    "address": "555 Fifth Avenue, New York, NY 10017",
    "total_spots": 300,
    "available_spots": 125,
    "status": "active",
    "image_url": "/placeholder.svg?height=200&width=300",
    "created_at": "2024-12-20T13:15:00Z",
    "coordinates": {
      "latitude": 40.7549,
      "longitude": -73.984
    }
  },
  {
    "id": "loc_006",
    "name": "Medical Center Parking",
    "company_id": "comp_004",
    "address": "888 Health Avenue, Boston, MA 02115",
    "total_spots": 75,
    "available_spots": 22,
    "status": "active",
    "image_url": "/placeholder.svg?height=200&width=300",
    "created_at": "2025-01-05T10:25:00Z",
    "coordinates": {
      "latitude": 42.3601,
      "longitude": -71.0589
    }
  },
  {
    "id": "loc_007",
    "name": "Financial District Garage",
    "company_id": "comp_005",
    "address": "777 Finance Street, Charlotte, NC 28202",
    "total_spots": 110,
    "available_spots": 35,
    "status": "active",
    "image_url": "/placeholder.svg?height=200&width=300",
    "created_at": "2025-01-15T09:10:00Z",
    "coordinates": {
      "latitude": 35.2271,
      "longitude": -80.8431
    }
  },
  {
    "id": "loc_008",
    "name": "Factory Lot",
    "company_id": "comp_006",
    "address": "999 Industrial Parkway, Detroit, MI 48201",
    "total_spots": 250,
    "available_spots": 180,
    "status": "active",
    "image_url": "/placeholder.svg?height=200&width=300",
    "created_at": "2025-01-25T14:50:00Z",
    "coordinates": {
      "latitude": 42.3314,
      "longitude": -83.0458
    }
  },
  {
    "id": "loc_009",
    "name": "Waterfront Parking",
    "company_id": "comp_007",
    "address": "333 Dock Street, Seattle, WA 98101",
    "total_spots": 95,
    "available_spots": 0,
    "status": "maintenance",
    "image_url": "/placeholder.svg?height=200&width=300",
    "created_at": "2025-02-05T11:35:00Z",
    "coordinates": {
      "latitude": 47.6062,
      "longitude": -122.3321
    }
  },
  {
    "id": "loc_010",
    "name": "Mountain View Garage",
    "company_id": "comp_008",
    "address": "555 Summit Road, Denver, CO 80202",
    "total_spots": 130,
    "available_spots": 87,
    "status": "active",
    "image_url": "/placeholder.svg?height=200&width=300",
    "created_at": "2025-02-15T10:05:00Z",
    "coordinates": {
      "latitude": 39.7392,
      "longitude": -104.9903
    }
  }
]
